City Name,Latitude,Longitude,Max Temperature,Humidity,Cloudiness,Wind Speed,Country,Date
Qaqortoq,60.7167,-46.0333,41.0,36,75,26.46,GL,1610414487
Ponta do Sol,32.6667,-17.1,55.0,66,9,3.0,PT,1610414126
Bluff,-46.6,168.3333,63.25,57,13,2.1,NZ,1610414251
Carnarvon,-24.8667,113.6333,80.6,74,75,21.85,AU,1610414250
Albany,42.6001,-73.9662,28.99,67,18,2.71,US,1610414180
Mataura,-46.1927,168.8643,74.89,34,0,1.77,NZ,1610414253
Māgadi,12.9667,77.2333,66.2,100,40,2.3,IN,1610414496
Butaritari,3.0707,172.7902,80.82,81,100,22.3,KI,1610414260
Kapaa,22.0752,-159.319,79.0,73,1,8.05,US,1610414264
Ushuaia,-54.8,-68.3,44.6,81,75,14.97,AR,1610414499
Ondo,7.1,4.8333,72.03,98,14,0.96,NG,1610414500
Punta Arenas,-53.15,-70.9167,42.8,81,40,24.16,CL,1610414249
Yangi Marg`ilon,40.4272,71.7189,21.2,68,0,6.91,UZ,1610414188
Tasiilaq,65.6145,-37.6368,19.4,58,90,6.17,GL,1610414249
Saint-Philippe,-21.3585,55.7679,78.8,83,90,3.44,RE,1610414267
Makkah al Mukarramah,21.4267,39.8261,69.93,47,0,6.53,SA,1610414507
Havre-St-Pierre,50.2334,-63.5986,6.8,78,1,2.3,CA,1610414277
Hokitika,-42.7167,170.9667,63.57,60,0,6.8,NZ,1610414509
Yerbogachën,61.2767,108.0108,-36.96,82,66,1.45,RU,1610414004
Cidreira,-30.1811,-50.2056,77.99,86,100,23.69,BR,1610414279
Ribeira Grande,38.5167,-28.7,62.46,88,100,20.69,PT,1610414268
Puerto Ayora,-0.7393,-90.3518,73.99,92,7,1.99,EC,1610414248
Yellowknife,62.456,-114.3525,10.4,92,75,8.05,CA,1610414274
Puerto Princesa City,9.7392,118.7353,82.4,78,40,11.5,PH,1610414515
Hilo,19.7297,-155.09,80.6,61,1,11.5,US,1610414274
Flin Flon,54.7682,-101.865,14.0,85,75,2.3,CA,1610414301
Bambous Virieux,-20.3428,57.7575,80.01,94,40,17.27,MU,1610414272
Kholodnyy,62.7167,147.95,-24.07,84,99,1.03,RU,1610414519
Avarua,-21.2078,-159.775,86.0,70,75,13.8,CK,1610414251
Clyde River,70.4692,-68.5914,1.4,85,90,16.11,CA,1610414162
Rikitea,-23.1203,-134.9692,78.4,75,15,19.44,PF,1610414249
Kiunga,-6.1219,141.2906,88.25,63,36,2.08,PG,1610414332
Dikson,73.5069,80.5464,13.1,97,100,6.42,RU,1610414248
Chui,-33.6971,-53.4616,70.74,93,100,7.36,UY,1610414283
Torbay,47.6666,-52.7314,28.0,86,90,9.22,CA,1610414272
Silver City,32.7701,-108.2803,32.0,51,1,5.75,US,1610414528
Busselton,-33.65,115.3333,71.01,57,28,1.01,AU,1610414252
Niterói,-22.8833,-43.1036,84.99,74,40,9.22,BR,1610414530
Alofi,-19.0595,-169.9187,84.2,70,75,10.36,NU,1610414083
Mendi,-6.1761,143.6513,70.38,68,57,4.0,PG,1610414532
Provideniya,64.3833,-173.3,1.4,71,0,8.95,RU,1610414280
Quatre Cocos,-20.2078,57.7625,80.01,94,40,17.27,MU,1610414099
Saint Paul Harbor,57.79,-152.4072,37.4,87,75,13.8,US,1610414266
Álamos,27.0167,-108.9333,64.0,48,0,3.33,MX,1610414536
Cherskiy,68.75,161.3,-34.69,82,0,1.25,RU,1610414024
Belaya Gora,68.5333,146.4167,-37.39,83,74,0.56,RU,1610414540
Paita,-5.0892,-81.1144,70.72,81,99,12.93,PE,1610414313
San Cristobal,7.7669,-72.225,63.9,90,7,2.44,VE,1610414113
Kwekwe,-18.9281,29.8149,65.17,95,100,5.55,ZW,1610414544
Kaitangata,-46.2817,169.8464,63.0,66,0,8.99,NZ,1610414251
Port Alfred,-33.5906,26.891,68.0,97,50,12.41,ZA,1610414263
Vaini,-21.2,-175.2,86.0,79,75,10.36,TO,1610414250
Chokurdakh,70.6333,147.9167,-27.94,82,100,1.54,RU,1610414258
Fortuna,40.5982,-124.1573,57.0,67,1,14.97,US,1610414270
Hearst,49.6835,-83.6665,24.8,86,100,6.91,CA,1610414300
Cookeville,36.1628,-85.5016,32.0,93,90,3.31,US,1610414552
Barrow,71.2906,-156.7887,1.4,85,90,23.02,US,1610414064
Seydi,39.4816,62.9137,34.07,84,3,5.37,TM,1610414554
Ukiah,39.1502,-123.2078,55.4,71,1,4.61,US,1610414287
Gbarnga,6.9956,-9.4722,71.13,99,36,2.62,LR,1610414556
Padang,-0.9492,100.3543,75.27,86,100,7.18,ID,1610414315
Pozoblanco,38.3791,-4.8483,35.6,80,0,5.75,ES,1610414558
Bilma,18.6853,12.9164,63.91,27,0,3.89,NE,1610414391
Soligalich,59.0778,42.2864,-16.13,88,31,4.52,RU,1610414561
Dawlatabad,36.4141,64.9053,36.81,66,0,4.41,AF,1610414562
East London,-33.0153,27.9116,72.79,90,92,7.23,ZA,1610414281
Grindavik,63.8424,-22.4338,30.2,80,75,8.05,IS,1610414295
Saint Anthony,45.0205,-93.218,30.2,74,1,4.61,US,1610414314
Ancud,-41.8697,-73.8203,53.01,66,0,4.61,CL,1610414314
Constitución,-35.3333,-72.4167,55.08,69,0,16.71,CL,1610414156
Hong Kong,22.2855,114.1577,52.0,29,35,4.0,HK,1610414102
Port Blair,11.6667,92.75,80.06,75,100,14.74,IN,1610414105
Comodoro Rivadavia,-45.8667,-67.5,62.6,27,0,21.85,AR,1610414243
Waingapu,-9.6567,120.2641,85.64,64,3,3.13,ID,1610414499
Asău,46.4333,26.4,30.2,100,75,6.91,RO,1610414575
Sal Rei,16.1833,-22.9167,68.0,64,75,18.41,CV,1610414576
Cape Town,-33.9258,18.4232,69.01,77,0,11.5,ZA,1610414001
Sovetskiy,61.3614,63.5842,-24.59,87,0,2.55,RU,1610414579
Honningsvåg,70.9821,25.9704,21.51,97,57,31.94,NO,1610414088
Riyadh,24.6877,46.7219,50.0,53,0,5.75,SA,1610414558
Bethel,41.3712,-73.414,27.0,80,1,2.53,US,1610414274
Esim,4.8699,-2.2405,79.05,87,0,8.12,GH,1610414278
Majene,-3.5403,118.9707,79.61,83,100,2.84,ID,1610414586
Aksarka,66.5606,67.7975,-9.26,74,40,4.52,RU,1610414587
Korla,41.7597,86.1469,11.62,85,0,7.18,CN,1610414317
Imbituba,-28.24,-48.6703,80.6,78,40,6.91,BR,1610414309
Saldanha,-33.0117,17.9442,64.4,72,0,2.3,ZA,1610414264
Sørland,67.667,12.6934,32.5,89,1,23.17,NO,1610414330
Lovozero,68.005,35.0117,2.34,91,6,7.99,RU,1610414593
Mossamedes,-15.1961,12.1522,71.96,65,80,7.72,AO,1610414335
Port Hardy,50.6996,-127.4199,48.2,76,90,20.71,CA,1610414304
Maţāy,28.419,30.7792,60.62,46,0,7.11,EG,1610414598
Tombouctou,20.0,-3.0,61.32,31,0,12.39,ML,1610414599
Lebu,-37.6167,-73.65,54.5,68,0,20.71,CL,1610414269
Saint George,37.1041,-113.5841,44.6,29,1,5.75,US,1610414291
Anadyr,64.75,177.4833,-25.01,75,64,17.9,RU,1610414307
Scarborough,54.2797,-0.4044,39.99,93,100,4.0,GB,1610414277
Jamestown,42.097,-79.2353,32.0,86,90,11.5,US,1610414271
Batagay,67.6333,134.6333,-42.2,75,23,3.18,RU,1610414605
Maningrida,-12.0667,134.2667,89.58,63,5,2.93,AU,1610414297
Hithadhoo,-0.6,73.0833,80.83,77,67,16.78,MV,1610414254
Kavaratti,10.5669,72.642,82.47,75,100,10.22,IN,1610414398
Dukat,62.55,155.55,-18.36,87,100,1.77,RU,1610414609
Marabu,4.4148,114.0089,77.0,94,40,1.14,MY,1610414611
Chuguyevka,44.1653,133.8633,15.96,91,100,2.37,RU,1610414612
Upernavik,72.7868,-56.1549,22.39,95,98,22.03,GL,1610414301
Carman,49.4992,-98.0016,23.0,93,100,23.02,CA,1610414328
Inuvik,68.3499,-133.7218,3.2,85,100,1.14,CA,1610414616
Spokane,47.6166,-117.3677,39.2,93,90,1.34,US,1610414482
Cabo San Lucas,22.8909,-109.9124,69.8,46,1,3.44,MX,1610414197
Mount Isa,-20.7333,139.5,93.2,36,0,6.91,AU,1610414328
Beaverlodge,55.2166,-119.4361,35.6,75,20,23.02,CA,1610414621
Kungurtug,50.5994,97.5228,3.0,87,100,6.04,RU,1610414622
Villanueva,15.3167,-88.0,77.0,83,75,6.91,HN,1610414623
Ahipara,-35.1667,173.1667,72.28,55,79,5.21,NZ,1610414298
Ostrovnoy,68.0531,39.5131,4.01,91,1,16.53,RU,1610414169
Honiara,-9.4333,159.95,83.01,74,100,3.04,SB,1610414626
Fort Nelson,58.8053,-122.7002,23.0,93,90,6.91,CA,1610414044
Qaanaaq,77.484,-69.3632,2.1,74,39,7.09,GL,1610414269
Nipawin,53.3668,-104.0009,24.8,80,90,9.22,CA,1610414580
Hasaki,35.7333,140.8333,41.0,93,75,9.22,JP,1610414089
Katherine,-14.4667,132.2667,89.6,55,75,8.05,AU,1610414633
Codrington,-38.2667,141.9667,63.16,59,13,12.88,AU,1610414337
Dryden,49.7833,-92.7503,24.8,86,90,6.91,CA,1610414635
Havelock,34.8791,-76.9013,44.01,92,100,1.01,US,1610414162
Upington,-28.4478,21.2561,75.2,78,20,4.61,ZA,1610414283
Tazovsky,67.4667,78.7,4.14,94,98,12.48,RU,1610414638
Starkville,33.4504,-88.8184,34.0,100,90,4.61,US,1610414639
Kiama,-34.6833,150.8667,84.0,69,100,14.0,AU,1610414640
Bella Union,-30.2752,-57.6007,72.61,93,100,14.38,UY,1610414641
Hobart,-42.8794,147.3294,71.01,63,75,21.85,AU,1610414103
Kruisfontein,-34.0033,24.7314,66.99,94,100,3.0,ZA,1610414251
Hermanus,-34.4187,19.2345,66.99,93,53,3.0,ZA,1610414267
Tuktoyaktuk,69.4541,-133.0374,1.4,85,90,17.27,CA,1610414253
Xique-Xique,-10.8218,-42.7263,76.6,78,21,8.48,BR,1610414646
São Filipe,14.8961,-24.4956,69.64,72,3,16.17,CV,1610414134
Kiryat Gat,31.61,34.7642,63.0,48,99,8.84,IL,1610414312
Isla Vista,34.4133,-119.861,61.0,77,1,5.75,US,1610414650
Castro,-24.7911,-50.0119,67.06,97,4,7.58,BR,1610414265
Zhigansk,66.7697,123.3711,-43.4,79,83,10.18,RU,1610414652
Hella,67.2,14.4333,24.8,54,0,33.38,NO,1610414653
Khatanga,71.9667,102.5,-18.33,89,100,3.44,RU,1610414250
Mahébourg,-20.4081,57.7,78.8,94,40,17.27,MU,1610414167
Nikolskoye,59.7035,30.7861,9.0,85,75,13.42,RU,1610414257
Hamilton,39.1834,-84.5333,28.0,80,1,4.27,US,1610414068
Tuatapere,-46.1333,167.6833,71.8,41,0,3.51,NZ,1610414171
Omsukchan,62.5333,155.8,-19.7,85,100,2.51,RU,1610414659
Taltal,-25.4,-70.4833,65.79,71,78,4.76,CL,1610414661
Geraldton,-28.7667,114.6,77.0,65,100,17.27,AU,1610414272
Pangai,-19.8,-174.35,84.2,84,75,11.5,TO,1610414663
Cam Ranh,11.9214,109.1591,71.6,68,75,24.16,VN,1610414665
Iqaluit,63.7506,-68.5145,5.0,78,90,2.3,CA,1610414291
Quelimane,-17.8786,36.8883,82.4,83,20,5.75,MZ,1610414667
San Policarpo,12.1791,125.5072,78.76,88,100,21.43,PH,1610414668
Bandarbeyla,9.4942,50.8122,71.46,73,16,21.97,SO,1610414153
Mehamn,71.0357,27.8492,16.39,91,20,15.75,NO,1610414306
Fort-Shevchenko,44.5086,50.263,35.13,84,100,8.34,KZ,1610414671
Tete,-16.1564,33.5867,77.0,100,75,4.59,MZ,1610414673
Ashland,40.8167,-82.2665,27.0,74,90,12.66,US,1610414674
Isabela,6.7085,121.9711,82.4,78,75,1.14,PH,1610414570
Paamiut,61.994,-49.6678,27.36,98,100,14.65,GL,1610414335
Helong,42.5397,128.9972,13.53,81,0,4.65,CN,1610414678
Bathurst,-33.4166,149.5806,82.99,39,94,4.0,AU,1610414679
Narsimhapur,22.95,79.2,54.1,65,52,4.14,IN,1610414681
Narón,43.5167,-8.1528,45.0,100,0,4.61,ES,1610414682
Tibati,6.4667,12.6333,61.65,31,18,3.69,CM,1610414683
Tiksi,71.6872,128.8694,-36.22,82,78,7.83,RU,1610414283
Misratah,32.3754,15.0925,63.5,79,100,12.82,LY,1610414685
Den Helder,52.9599,4.7593,46.4,93,75,18.41,NL,1610414686
Puerto Gaitán,4.3133,-72.0816,78.98,73,0,10.85,CO,1610414420
Ngama,11.7833,17.1667,67.37,23,0,8.97,TD,1610414688
Mahon,39.8885,4.2658,41.0,87,20,6.91,ES,1610414689
Nacala,-14.5428,40.6728,77.67,83,53,5.48,MZ,1610414690
Marawi,7.9986,124.2928,77.0,92,75,5.99,PH,1610414692
Kahului,20.8947,-156.47,84.2,51,40,19.57,US,1610414293
Talnakh,69.4865,88.3972,-19.73,87,88,1.7,RU,1610414339
Sehithwa,-20.4667,22.7167,72.32,85,100,7.9,BW,1610414697
Colquechaca,-18.6667,-66.0167,39.16,100,100,8.57,BO,1610414698
Sioux Lookout,50.1001,-91.917,23.0,86,90,4.61,CA,1610414699
Mariestad,58.7097,13.8237,32.0,93,90,9.22,SE,1610414700
Saskylakh,71.9167,114.0833,-21.91,86,100,7.31,RU,1610414258
Guerrero Negro,27.9769,-114.0611,64.74,39,0,17.13,MX,1610414299
Adré,13.4667,22.2,59.49,30,0,12.01,TD,1610414711
Charters Towers,-20.1,146.2667,80.74,71,100,10.29,AU,1610414712
Oranjemund,-28.55,16.4333,63.5,90,100,7.34,NA,1610414713
Tsimmerbude,54.675,20.1347,33.8,75,20,15.66,RU,1610414309
Grand Gaube,-20.0064,57.6608,80.01,85,100,8.99,MU,1610414716
Wells,51.2079,-2.649,48.0,94,100,8.01,GB,1610414718
Novotitarovskaya,45.2356,38.9792,30.2,93,75,6.71,RU,1610414207
Lompoc,34.6391,-120.4579,55.0,87,1,8.05,US,1610414144
Yecla,38.6137,-1.1147,34.0,79,0,1.01,ES,1610414722
Wilhelmshaven,53.5167,8.1333,44.6,93,100,16.11,DE,1610414723
La Ronge,55.1001,-105.2842,28.4,80,99,2.3,CA,1610414482
George Town,5.4112,100.3354,80.6,78,20,4.61,MY,1610414285
Alta Floresta,-9.8756,-56.0861,73.22,94,100,1.74,BR,1610414726
Marsh Harbour,26.5412,-77.0636,73.08,63,100,7.58,BS,1610414727
Seoul,37.5683,126.9778,21.2,73,75,5.75,KR,1610414068
Dehui,44.5333,125.7,12.2,73,100,13.42,CN,1610414729
Diffa,13.3154,12.6113,66.07,29,0,9.31,NE,1610414298
Poya,-21.35,165.15,86.04,70,100,4.52,NC,1610414732
Klaksvík,62.2266,-6.589,37.4,75,40,23.02,FO,1610414733
Merauke,-8.4667,140.3333,85.57,67,26,1.59,ID,1610414316
Fort Saint James,54.4333,-124.25,29.3,94,59,4.54,CA,1610414735
Sobolevo,54.4299,31.8996,14.85,97,81,6.04,RU,1610414736
Mūl,20.0667,79.6667,64.9,62,100,5.28,IN,1610414737
Nanortalik,60.1432,-45.2371,30.81,93,100,4.43,GL,1610414260
Gamba,-2.65,10.0,78.28,87,100,9.19,GA,1610414178
Faanui,-16.4833,-151.75,81.28,76,100,20.4,PF,1610414222
Port Lincoln,-34.7333,135.8667,64.98,59,5,13.62,AU,1610414339
Panabá,21.2833,-88.2667,69.55,88,76,6.89,MX,1610414743
Yüksekova,37.5736,44.2872,23.0,86,7,4.61,TR,1610414745
Bayan,46.0833,127.4,-1.43,92,100,4.41,CN,1610414747
Rio Grande,-32.035,-52.0986,71.2,89,100,1.41,BR,1610414310
Robertsport,6.7533,-11.3686,80.49,82,69,11.88,LR,1610414295
Butembo,0.15,29.2833,59.9,97,100,2.26,CD,1610414750
Najrān,17.4924,44.1277,51.8,43,0,1.25,SA,1610414064
Leningradskiy,69.3833,178.4167,-22.56,83,100,14.85,RU,1610414267
New Norfolk,-42.7826,147.0587,71.01,59,5,1.99,AU,1610414254
San Vicente de Cañete,-13.0751,-76.3835,70.29,81,60,2.95,PE,1610414754
Cap Malheureux,-19.9842,57.6142,80.01,85,100,10.0,MU,1610414298
Pangody,65.85,74.4859,-9.49,91,95,11.48,RU,1610414756
Vetluzhskiy,58.3902,45.4654,-15.45,89,89,5.44,RU,1610414757
Arraial do Cabo,-22.9661,-42.0278,77.0,88,20,17.27,BR,1610414278
Sinnamary,5.3833,-52.95,77.56,86,28,12.01,GF,1610414759
Jijiga,9.35,42.8,57.2,38,89,13.09,ET,1610414760
Loreto,22.2667,-101.9667,58.12,33,0,10.29,MX,1610414728
Karasburg,-28.0167,18.75,73.72,40,95,10.31,NA,1610414762
Port Elizabeth,-33.918,25.5701,66.2,100,90,11.5,ZA,1610414269
Muros,42.7762,-9.0603,39.99,92,2,1.99,ES,1610414765
Esperance,-33.8667,121.9,69.8,43,83,10.36,AU,1610414288
Atuona,-9.8,-139.0333,77.63,80,2,15.79,PF,1610414251
Peniche,39.3558,-9.3811,42.01,52,0,1.01,PT,1610414584
Ulenje,-8.9333,33.6833,57.69,93,100,1.54,TZ,1610414769
Myślibórz,52.9238,14.8679,36.0,63,100,10.0,PL,1610414770
Cairns,-16.9167,145.7667,89.6,66,40,10.36,AU,1610414711
Bengkulu,-3.8004,102.2655,75.42,94,100,13.18,ID,1610414255
Port Macquarie,-31.4333,152.9167,86.0,41,0,1.99,AU,1610414176
Brownsville,25.9018,-97.4975,48.2,61,90,4.61,US,1610414112
Paragominas,-2.9667,-47.4833,73.27,92,100,2.71,BR,1610414775
Coquimbo,-29.9533,-71.3436,60.8,82,0,3.44,CL,1610414269
Birao,10.2849,22.7882,64.45,27,0,6.55,CF,1610414777
Vardø,70.3705,31.1107,19.9,95,35,25.12,NO,1610414648
Bud,39.447,-86.1758,23.0,93,90,5.75,US,1610414779
Yarmouth,41.7057,-70.2286,37.99,75,90,3.44,US,1610414781
Norman Wells,65.282,-126.8329,5.0,85,90,2.3,CA,1610414268
Tandaltī,13.0167,31.8667,68.63,36,0,9.86,SD,1610414783
Bereda,43.2686,-7.5406,33.01,99,27,3.0,ES,1610414784
Karīmpur,23.9667,88.6167,57.0,65,6,4.65,IN,1610414785
Winslow,35.0242,-110.6974,30.2,34,1,5.75,US,1610414599
Port-Gentil,-0.7193,8.7815,80.6,78,97,8.05,GA,1610414787
Kieta,-6.2167,155.6333,78.69,84,100,8.37,PG,1610414322
Esmeraldas,-19.7625,-44.3139,78.8,83,75,5.75,BR,1610414789
Malaya Purga,56.5567,53.0043,-5.01,84,95,4.0,RU,1610414791
Porto Walter,-8.2686,-72.7439,75.61,93,99,1.95,BR,1610414792
Fairbanks,64.8378,-147.7164,19.4,93,75,1.77,US,1610414290
Newtonmore,57.066,-4.1192,32.0,93,20,8.05,GB,1610414794
Karaton,-6.3424,106.1045,77.0,88,40,8.05,ID,1610414796
General Roca,-39.0333,-67.5833,60.8,33,0,4.61,AR,1610414797
Agadez,19.75,10.25,63.43,27,0,4.99,NE,1610414798
Bontang,0.1333,117.5,80.69,78,100,9.33,ID,1610414259
Araouane,18.9048,-3.5265,62.85,29,0,13.38,ML,1610414800
Katsuura,35.1333,140.3,42.01,51,60,5.44,JP,1610414297
Toktogul,41.8708,72.9402,28.8,51,69,1.74,KG,1610414802
Baykit,61.67,96.37,-20.83,82,100,1.95,RU,1610414803
Zaysan,47.4667,84.8667,5.09,82,0,1.7,KZ,1610414804
Itarema,-2.9248,-39.9167,77.81,81,28,11.7,BR,1610414321
Murray Bridge,-35.1167,139.2667,71.01,49,0,9.31,AU,1610414806
Bilibino,68.0546,166.4372,-25.82,79,1,2.42,RU,1610414224
High Rock,26.6208,-78.2833,66.2,82,40,3.44,BS,1610414808
Nouadhibou,20.931,-17.0347,62.6,55,100,17.27,MR,1610414809
Guánica,17.9716,-66.908,72.0,81,65,8.12,PR,1610414811
Kalmunai,7.4167,81.8167,75.63,92,97,6.87,LK,1610414812
Karratha,-20.7377,116.8463,95.25,41,0,14.38,AU,1610414289
Xapuri,-10.6517,-68.5044,77.29,81,85,1.45,BR,1610414814
Cadillac,44.2519,-85.4012,28.0,93,90,9.22,US,1610414729
Raudeberg,61.9875,5.1352,32.0,94,100,10.0,NO,1610414816
Cua,10.1589,-66.8858,80.6,83,20,5.75,VE,1610414817
Turukhansk,65.8167,87.9833,-5.93,91,100,5.1,RU,1610414264
Cockburn Town,21.4612,-71.1419,78.21,80,58,17.27,TC,1610414225
Azul,-36.777,-59.8585,61.0,69,0,5.99,AR,1610414820
Sălcioara,44.7167,25.5833,34.0,100,90,11.5,RO,1610414821
San Patricio,28.017,-97.5169,46.4,75,20,5.75,US,1610414321
Tataouine,32.9297,10.4518,55.4,88,0,2.3,TN,1610414823
Lahaina,20.8783,-156.6825,84.2,51,40,19.57,US,1610414825
Buala,-8.145,159.5921,82.0,81,100,10.0,SB,1610414826
Souillac,-20.5167,57.5167,78.8,94,40,17.27,MU,1610414626
Umarkot,25.3616,69.7362,51.96,36,0,5.66,PK,1610414828
Asunción,-25.3007,-57.6359,82.4,78,0,4.81,PY,1610414549
Touros,-5.1989,-35.4608,80.6,74,40,10.36,BR,1610414265
Bambanglipuro,-7.95,110.2833,82.33,72,21,4.34,ID,1610414832
Lafiagi,8.8667,5.4167,76.35,23,0,0.83,NG,1610414833
Maragogi,-9.0122,-35.2225,77.88,79,100,9.19,BR,1610414834
Bara,10.3744,10.7288,68.94,23,0,8.39,NG,1610414836
Kudahuvadhoo,2.6708,72.8944,81.09,77,97,14.61,MV,1610414839
Petropavlovsk-Kamchatskiy,53.0452,158.6483,6.8,66,100,13.42,RU,1610414308
Mahibadhoo,3.7833,72.9667,80.58,80,100,15.21,MV,1610414841
Livingston,55.9029,-3.5226,30.99,100,60,3.44,GB,1610414781
Skibotn,69.3913,20.2679,21.2,63,0,18.41,NO,1610414843
Airai,-8.9266,125.4092,73.26,80,11,1.7,TL,1610414261
Gimli,50.6336,-96.9907,23.0,100,100,12.66,CA,1610414341
Bubaque,11.2833,-15.8333,80.69,59,100,13.4,GW,1610414846
Tuy Hoa,13.0833,109.3,65.05,86,100,14.36,VN,1610414318
Wanning,18.8003,110.3967,55.8,64,35,16.67,CN,1610414848
Saint-Pierre,-21.3393,55.4781,78.8,83,90,3.44,RE,1610414258
Murchison,-41.8,172.3333,79.79,29,0,3.09,NZ,1610414850
Dondo,-19.6094,34.7431,82.4,78,20,17.27,MZ,1610414851
Beloha,-25.1667,45.05,72.48,86,0,9.19,MG,1610414255
Te Anau,-45.4167,167.7167,71.65,47,0,3.58,NZ,1610414327
Saint-Joseph,-21.3667,55.6167,78.8,83,90,3.44,RE,1610414856
Aras,42.5617,-2.356,34.0,86,0,10.36,ES,1610414857
Aklavik,68.2191,-135.0107,3.2,85,100,1.14,CA,1610414309
Broome,42.2506,-75.833,30.2,74,90,5.75,US,1610414279
Belyy Yar,53.6039,91.3903,-2.2,71,75,8.95,RU,1610414860
Tucupita,9.0622,-62.051,69.57,92,0,3.98,VE,1610414861
Bredasdorp,-34.5322,20.0403,66.2,94,100,10.36,ZA,1610414267
Beidao,34.5686,105.8933,23.85,74,0,3.42,CN,1610414863
Luena,-11.7833,19.9167,59.52,95,100,3.29,AO,1610414864
Ilulissat,69.2167,-51.1,23.0,93,90,3.44,GL,1610414290
Doka,13.5167,35.7667,66.88,52,0,12.21,SD,1610414866
Tocopilla,-22.092,-70.1979,69.08,66,21,9.28,CL,1610414867
Bima,-8.4667,118.7167,87.67,67,2,0.78,ID,1610414303
Champerico,14.3,-91.9167,82.4,78,75,6.91,GT,1610414869
Santa Fe,-31.6333,-60.7,74.1,89,100,6.69,AR,1610414608
Mungaa,-4.9667,34.8833,61.95,93,100,0.4,TZ,1610414872
Namatanai,-3.6667,152.4333,85.66,65,89,6.33,PG,1610414874
Bilimbay,56.9689,59.8149,-7.6,77,40,8.95,RU,1610414875
Disna,55.568,28.1971,22.19,98,93,8.81,BY,1610414876
Ballina,-28.8667,153.5667,80.6,57,41,10.36,AU,1610414877
Surgut,61.25,73.4167,-32.8,68,20,8.95,RU,1610414878
Kathmandu,27.7167,85.3167,44.6,87,75,3.44,NP,1610414676
Alyangula,-13.8483,136.4192,87.8,74,75,8.05,AU,1610414880
Manggar,-2.8833,108.2667,80.78,82,100,11.63,ID,1610414882
Okhotsk,59.3833,143.3,-11.22,86,100,7.38,RU,1610414312
Kapfenberg,47.454,15.2702,23.0,95,0,2.59,AT,1610414884
Gerāsh,27.6652,54.1371,30.2,40,0,1.52,IR,1610414887
Gravelbourg,49.8834,-106.5512,30.2,80,2,16.11,CA,1610414888
Mezhdurechensk,53.6942,88.0603,-7.69,89,100,1.81,RU,1610414889
Tandahimba,-10.75,39.6333,71.78,97,51,6.15,TZ,1610414890
Warmbad,-28.45,18.7333,78.48,35,4,10.87,NA,1610414891
Sept-Îles,50.2001,-66.3821,17.6,73,100,5.75,CA,1610414762
Synya,65.3718,58.0387,-15.34,83,79,3.4,RU,1610414893
Pimentel,-6.8367,-79.9342,71.6,73,0,21.85,PE,1610414894
Bonthe,7.5264,-12.505,78.82,86,95,10.49,SL,1610414895
Deputatsky,69.3,139.9,-39.93,79,0,1.54,RU,1610414897
Mar del Plata,-38.0023,-57.5575,63.0,63,40,10.36,AR,1610414750
Tucumã,-0.1833,-50.05,76.39,92,98,5.86,BR,1610414900
Dabat,12.9842,37.765,44.83,59,0,3.87,ET,1610414901
Sanary-sur-Mer,43.1178,5.8001,41.0,87,20,6.91,FR,1610414903
Lagoa,39.05,-27.9833,61.5,90,99,18.41,PT,1610414904
Dunedin,-45.8742,170.5036,64.45,66,0,8.14,NZ,1610414905
Umm Kaddadah,13.6017,26.6876,63.43,29,0,16.37,SD,1610414907
Belmonte,-15.8631,-38.8828,78.8,83,20,10.36,BR,1610414908
Palmer,42.1584,-72.3287,28.0,80,90,3.09,US,1610414909
Kazanka,47.8462,32.8218,26.6,86,75,4.81,UA,1610414910
Shimoda,34.6667,138.95,46.4,71,75,12.66,JP,1610414911
Nuuk,64.1835,-51.7216,23.0,100,90,8.05,GL,1610414912
Maun,-19.9833,23.4167,71.6,100,75,4.61,BW,1610414913
Prince Rupert,54.3161,-130.3201,42.8,81,90,16.11,CA,1610414644
Ortona,42.3496,14.4039,41.0,93,90,6.91,IT,1610414915
Hambantota,6.1241,81.1185,75.2,100,75,4.61,LK,1610414917
North Bend,43.4065,-124.2243,55.99,82,90,8.05,US,1610414918
Kabo,7.6994,18.629,69.8,22,0,4.07,CF,1610414919
Kells,53.7264,-6.8792,48.2,100,75,14.97,IE,1610414920
Conchas,-23.0153,-48.0106,74.46,89,100,8.48,BR,1610414921
Lárdos,36.0942,28.0157,64.4,82,40,8.05,GR,1610414922
Narsaq,60.9167,-46.05,41.0,36,75,26.46,GL,1610414923
Tiarei,-17.5333,-149.3333,84.2,65,75,11.5,PF,1610414925
Ippy,6.2679,21.2247,66.94,25,0,4.16,CF,1610414926
Yakeshi,49.2833,120.7333,-5.19,91,100,4.16,CN,1610414928
Innisfail,-17.5333,146.0333,79.61,90,100,8.39,AU,1610414929
Bowmore,34.9421,-79.3031,44.6,76,90,5.75,US,1610414931
Thinadhoo,0.5333,72.9333,80.73,78,92,16.13,MV,1610414932
Baikunthpur,23.25,82.55,52.75,74,0,2.89,IN,1610414933
Aksarayskiy,46.7924,48.0119,26.6,93,75,4.47,RU,1610414934
Nemuro,43.3236,145.575,21.2,63,75,11.3,JP,1610414935
Assiut,27.181,31.1837,53.6,71,0,5.75,EG,1610414936
Jumla,29.2747,82.1838,35.4,49,0,4.27,NP,1610414937
Pecos,31.4229,-103.4932,33.8,75,1,4.61,US,1610414938
Werda,-25.2667,23.2833,74.5,71,100,7.45,BW,1610414939
Faya,18.3851,42.4509,42.8,87,40,13.02,SA,1610414940
Tripoli,32.8752,13.1875,60.76,81,0,6.51,LY,1610414787
Mandalgovi,45.7625,106.2708,16.7,87,100,17.94,MN,1610414942
Alice Springs,-23.7,133.8833,93.2,21,0,13.8,AU,1610414943
Druskininkai,54.0167,23.9667,26.04,95,22,10.31,LT,1610414945
Tranås,58.0372,14.9782,35.6,93,90,10.36,SE,1610414946
Vila Velha,-20.3297,-40.2925,78.8,78,20,8.05,BR,1610414847
Biak,-0.9131,122.8766,83.64,69,100,0.47,ID,1610414948
Banda Aceh,5.5577,95.3222,78.37,80,100,11.5,ID,1610414949
Benguela,-12.5763,13.4055,73.83,75,98,1.68,AO,1610414950
Deniliquin,-35.5333,144.9667,84.99,40,0,7.67,AU,1610414951
Mīnāb,27.1467,57.0801,37.4,44,0,9.22,IR,1610414696
Atambua,-9.1061,124.8925,83.7,72,5,1.19,ID,1610414953
Pevek,69.7008,170.3133,-32.55,85,28,0.96,RU,1610414631
Samfya,-11.3649,29.5565,65.05,94,100,2.19,ZM,1610414955
Sambava,-14.2667,50.1667,75.9,89,4,4.21,MG,1610414956
Dingle,10.9995,122.6711,75.7,88,97,15.1,PH,1610414957
Koutsouras,35.0339,25.9469,64.0,87,12,8.86,GR,1610414958
Portales,34.1862,-103.3344,28.4,100,1,6.91,US,1610414960
Rumoi,43.9344,141.6428,22.1,90,89,8.75,JP,1610414961
Skeldon,5.8833,-57.1333,75.36,91,97,6.6,GY,1610414962
Christchurch,-43.5333,172.6333,68.0,68,75,18.41,NZ,1610414868
Pundaguitan,6.3711,126.1689,80.1,83,100,12.39,PH,1610414964
Marzuq,14.4,46.4667,48.63,49,0,4.97,YE,1610414965
Vanimo,-2.6741,141.3028,86.45,65,30,4.27,PG,1610414967
Conceição da Barra,-18.5933,-39.7322,76.53,84,0,7.38,BR,1610414968
Cardston,49.2,-113.3019,39.2,56,100,10.36,CA,1610414969
Shingū,33.7333,135.9833,39.2,93,75,4.61,JP,1610414970
Eydhafushi,5.1033,73.0708,80.22,77,100,11.34,MV,1610414971
Pareora,-44.4871,171.2132,65.41,69,13,12.53,NZ,1610414973
Emba,48.8264,58.1442,14.11,97,83,10.16,KZ,1610414974
Calvinia,-31.4707,19.776,68.97,44,0,4.81,ZA,1610414976
Beringovskiy,63.05,179.3167,-20.94,81,79,12.8,RU,1610414977
Khani,41.9563,42.9566,48.2,100,90,8.05,GE,1610414978
Yulara,-25.2406,130.9889,96.8,14,0,10.36,AU,1610414402
Ketchikan,55.3422,-131.6461,41.0,93,90,26.46,US,1610414980
Sunrise Manor,36.2111,-115.0731,55.4,19,40,2.3,US,1610414981
Española,35.9911,-106.0806,32.0,43,1,3.44,US,1610414983
Lavrentiya,65.5833,-171.0,-12.05,83,100,11.48,RU,1610414985
Khovd,48.0056,91.6419,14.65,73,6,6.89,MN,1610414986
Flinders,-34.5833,150.8552,84.99,61,100,4.0,AU,1610414987
Beyneu,45.3167,55.2,25.56,98,100,8.86,KZ,1610414989
Gazli,40.1333,63.45,29.91,90,0,2.35,UZ,1610414990
Vitim,59.4511,112.5578,-16.92,86,100,1.5,RU,1610414991
Thompson,55.7435,-97.8558,23.0,93,90,9.22,CA,1610414786
Barra de Tecoanapa,16.5167,-98.75,77.68,78,0,3.22,MX,1610414993
Oodweyne,9.4092,45.064,62.37,37,0,19.3,SO,1610414994
Solhan,38.9634,41.0293,37.42,79,100,0.29,TR,1610414995
Husavik,66.0449,-17.3389,8.6,92,0,2.3,IS,1610414996
Praia da Vitória,38.7333,-27.0667,61.0,100,75,15.77,PT,1610414997
Esso,55.9333,158.7,3.07,77,30,3.22,RU,1610414998
Dauphin,51.1494,-100.0502,25.27,91,79,13.35,CA,1610414999
Los Llanos de Aridane,28.6585,-17.9182,59.0,72,90,12.66,ES,1610415000
Phan Thiet,10.9333,108.1,75.74,59,11,7.7,VN,1610415002
Kidal,18.4411,1.4078,68.18,23,0,11.05,ML,1610415006
Avera,33.194,-82.5271,44.6,96,90,8.05,US,1610415012
Monrovia,6.3005,-10.7969,75.2,94,40,8.25,LR,1610415014
Haizhou,34.5817,119.1289,35.19,70,0,13.73,CN,1610415015
Sibu,2.3,111.8167,78.8,83,20,2.3,MY,1610414815
Alugan,12.2188,125.4808,77.83,90,100,19.82,PH,1610415019
Skibbereen,51.55,-9.2667,48.2,93,75,14.97,IE,1610415020
Noumea,-22.2763,166.4572,81.0,83,75,10.36,NC,1610415021
Carutapera,-1.195,-46.02,78.06,85,0,6.31,BR,1610415022
Gornopravdinsk,60.05,69.9,-24.72,85,0,3.69,RU,1610415023
Sibolga,1.7427,98.7792,77.0,81,100,4.32,ID,1610415025
Vao,-22.6667,167.4833,78.21,85,91,18.7,NC,1610415026
Mackay,-21.15,149.2,80.6,83,40,19.57,AU,1610415027
Xichang,27.8964,102.2634,35.01,53,99,0.87,CN,1610415028
Yibin,28.7667,104.6238,41.27,66,67,0.47,CN,1610415030
The Valley,18.217,-63.0578,78.8,69,20,13.8,AI,1610414868
Haines Junction,60.7522,-137.5108,14.0,92,87,3.44,CA,1610415032
El Fuerte,26.4189,-108.6194,62.76,36,0,6.44,MX,1610415034
Erzin,36.9559,36.2,51.8,93,75,9.22,TR,1610415035
Ambilobe,-13.2,49.05,73.36,93,1,2.57,MG,1610415036
Williams Lake,52.1415,-122.1445,39.2,48,20,6.91,CA,1610415037
Caravelas,-17.7125,-39.2481,75.43,89,0,6.44,BR,1610415039
Mount Gambier,-37.8333,140.7667,68.0,42,3,12.66,AU,1610415040
Nome,64.5011,-165.4064,15.8,67,40,18.41,US,1610415041
Salalah,17.0151,54.0924,69.8,26,0,16.11,OM,1610415042
Wanlaweyn,2.6185,44.8938,70.03,77,0,11.43,SO,1610415043
Mama,58.3106,112.8986,-9.02,83,100,2.82,RU,1610415044
Chicama,-7.8447,-79.1469,71.62,74,95,6.46,PE,1610415045
Falam,22.9167,93.6833,57.52,71,98,0.72,MM,1610415046
Taguatinga,-12.3857,-46.5711,74.91,81,95,0.51,BR,1610415047
Port Jervis,41.3751,-74.6927,24.8,80,1,3.51,US,1610415050
Ust-Maya,60.4167,134.5333,-46.26,76,62,1.48,RU,1610415051
Mitsamiouli,-11.3847,43.2844,81.72,78,82,13.69,KM,1610415052
Portland,45.5234,-122.6762,48.0,71,90,12.66,US,1610414989
Yudong,29.385,106.5194,35.01,93,0,6.71,CN,1610415054
Samarai,-10.6167,150.6667,86.92,69,100,9.71,PG,1610415055
Balāngīr,20.7167,83.4833,66.74,60,29,2.86,IN,1610415056
Shaowu,27.3409,117.4831,44.92,51,0,1.23,CN,1610415057
Cayenne,4.9333,-52.3333,77.0,94,75,8.05,GF,1610415007
Mezen',65.8522,44.24,-9.15,86,0,4.63,RU,1610415059
Kunming,25.0389,102.7183,26.6,74,90,4.47,CN,1610414891
Wonogiri,-7.8144,110.9259,82.65,71,96,2.73,ID,1610415061
Vestmannaeyjar,63.4427,-20.2734,37.74,78,68,17.31,IS,1610415063
Lincoln,40.8,-96.667,37.4,70,1,3.44,US,1610415064
Wainwright,52.839,-110.8572,28.4,74,95,4.61,CA,1610415066
Jacksonville,30.3322,-81.6556,62.6,82,90,4.61,US,1610414801
Ushibukamachi,32.1906,130.0228,44.71,69,82,12.5,JP,1610415068
Tura,25.5198,90.2201,61.75,62,0,3.47,IN,1610415069
Kedrovyy,56.1667,91.8167,-20.2,83,0,4.25,RU,1610415071
Mapiripán,2.8892,-72.1256,73.83,88,97,4.07,CO,1610415072
Tres Arroyos,-38.3739,-60.2798,52.99,60,0,3.6,AR,1610415073
Port Hedland,-20.3167,118.5667,93.2,62,0,11.5,AU,1610415074
Kashgar,39.4547,75.9797,8.6,66,0,11.18,CN,1610415076
Poum,-20.2333,164.0167,83.25,74,100,3.47,NC,1610415077
Merrill,45.1805,-89.6835,30.2,93,90,4.97,US,1610415015
Mtimbira,-8.7833,36.35,70.39,94,100,0.87,TZ,1610415079
Esil,51.9556,66.4042,12.25,96,100,9.69,KZ,1610415080
Adrar,20.5022,-10.0711,55.17,41,100,10.51,MR,1610415081
Rudnogorsk,57.2639,103.7519,-25.49,86,85,3.13,RU,1610415082
Makakilo City,21.3469,-158.0858,82.4,61,1,9.22,US,1610415083
Xai-Xai,-25.0519,33.6442,73.94,83,18,3.27,MZ,1610415085
Chipata,-13.6333,32.65,65.07,99,100,1.45,ZM,1610415086
Mpigi,0.225,32.3136,65.89,81,100,1.28,UG,1610415087
Forbes,-33.3833,148.0167,91.49,21,50,7.29,AU,1610415088
Hays,30.0502,-98.0336,37.0,86,1,6.44,US,1610415089
Pochutla,15.7432,-96.4661,77.0,73,46,1.01,MX,1610415090
Mildura,-34.2,142.15,80.01,38,0,8.05,AU,1610415091
Waddān,29.1614,16.139,63.95,28,88,5.41,LY,1610415092
Hohhot,40.8106,111.6522,5.0,72,94,2.24,CN,1610415093
Kholmogory,64.2229,41.656,-16.6,76,0,6.71,RU,1610415094
Henties Bay,-22.116,14.2845,68.0,85,98,4.0,NA,1610415095
Rome,43.2128,-75.4557,27.0,86,1,4.61,US,1610415097
Kokoda,-8.8785,147.7407,90.55,45,81,4.05,PG,1610415099
Nagato,34.3833,131.2,41.0,87,40,2.3,JP,1610415100
Shitanjing,39.2342,106.3439,24.71,59,0,20.47,CN,1610415101
Yangjiang,21.85,111.9667,51.96,41,1,10.6,CN,1610415102
Margate,51.3813,1.3862,46.99,83,100,7.0,GB,1610415103
Zaykovo,57.5613,62.7568,-15.74,87,100,8.61,RU,1610415104
Igra,57.5558,53.0547,-12.86,88,100,8.1,RU,1610415106
Coyhaique,-45.5752,-72.0662,48.2,57,0,2.3,CL,1610415107
Kununurra,-15.7667,128.7333,93.2,55,77,3.44,AU,1610415108
Leh,34.1667,77.5833,-0.78,36,0,2.68,IN,1610415109
Gravdal,68.1214,13.5031,28.44,90,0,13.65,NO,1610415110
Hualmay,-11.0964,-77.6139,69.73,84,68,8.08,PE,1610415111
Yanam,16.7333,82.2167,68.0,88,20,6.91,IN,1610415113
Khrebtovaya,56.7032,104.2494,-19.86,89,100,5.44,RU,1610415114
Koutiala,12.3917,-5.4642,70.25,22,0,10.83,ML,1610415115
Severo-Kuril'sk,50.6789,156.125,23.85,88,96,22.62,RU,1610415116
Sitka,57.0531,-135.33,41.0,81,75,12.66,US,1610415117
Verkhnevilyuysk,63.4453,120.3167,-43.69,80,87,1.48,RU,1610415118
Hofn,64.2539,-15.2082,29.66,87,0,6.4,IS,1610415119
Thunder Bay,48.4001,-89.3168,30.99,86,90,3.44,CA,1610414865
Yumen,40.2833,97.2,15.67,74,19,39.24,CN,1610415122
Luyang,27.6239,110.0989,42.28,64,0,4.61,CN,1610415123
Weligama,5.9667,80.4167,77.11,86,45,4.54,LK,1610415126
Moroni,-11.7022,43.2551,80.53,77,92,13.71,KM,1610415127
Yurino,56.2942,46.3039,-5.8,84,40,2.24,RU,1610415128
Marsá Maţrūḩ,31.3525,27.2453,57.2,100,0,10.36,EG,1610415129
Dhidhdhoo,6.8833,73.1,81.59,75,100,16.58,MV,1610415130
Bloomfield,40.8068,-74.1854,37.4,74,1,3.69,US,1610414845
Hīrna,9.2167,41.1,53.58,70,45,2.1,ET,1610415133
Aksu,41.1231,80.2644,5.54,78,0,2.04,CN,1610415134
Andros Town,24.7,-77.7667,73.4,78,75,5.75,BS,1610415026
Eureka,40.8021,-124.1637,57.0,63,100,5.99,US,1610415136
Pisco,-13.7,-76.2167,69.8,88,0,17.27,PE,1610415137
Ciudad Real,39.0,-4.0,30.0,78,0,2.37,ES,1610415138
Kolondiéba,11.0882,-6.8926,72.12,20,0,7.47,ML,1610415140
Manacapuru,-3.2997,-60.6206,77.0,94,0,5.14,BR,1610415141
Santa Cruz de la Sierra,-17.8,-63.1667,77.0,88,30,10.36,BO,1610415142
Khuzhir,53.1939,107.3397,2.66,85,71,16.26,RU,1610415144
Rapid City,44.0805,-103.231,37.99,51,1,8.05,US,1610414867
Kūhdasht,33.535,47.6061,37.92,57,0,1.59,IR,1610415146
Orange Cove,36.6244,-119.3137,55.4,67,1,3.44,US,1610415147
Inírida,3.8653,-67.9239,73.29,95,97,2.44,CO,1610415148
Mwinilunga,-11.7358,24.4293,62.78,97,100,4.54,ZM,1610415149
Corn Island,12.1694,-83.0418,81.27,82,100,16.17,NI,1610415150
Acarí,-15.4311,-74.6158,72.21,70,100,4.34,PE,1610415151
Verkhnyaya Inta,65.9811,60.3094,-12.28,80,97,4.29,RU,1610415152
Muhafazat Lahij,13.1667,44.5833,65.48,81,51,6.98,YE,1610415153
Noyabrsk,63.1994,75.4507,-19.79,82,0,12.88,RU,1610415156
Forsytheganj,52.6333,29.7333,19.83,97,0,5.08,BY,1610415157
Dwārka,22.2394,68.9678,67.14,43,48,16.37,IN,1610415158
Carndonagh,55.25,-7.2667,39.81,82,99,8.1,IE,1610415159
Bundaberg,-24.85,152.35,84.0,57,75,13.8,AU,1610415085
Prainha,-1.8,-53.48,74.57,88,8,3.27,BR,1610415161
Turinsk,58.0458,63.696,-18.33,87,100,7.99,RU,1610415162
Paraná,-31.732,-60.5238,75.45,80,0,8.01,AR,1610415062
Kumul,42.8,93.45,13.08,84,0,0.81,CN,1610415164
Jinji,23.2281,110.8261,47.19,44,99,4.83,CN,1610415165
Tapes,-30.6733,-51.3958,71.89,95,100,13.44,BR,1610415167
La Rioja,42.25,-2.5,34.0,86,0,10.36,ES,1610414875
Sorong,-0.8833,131.25,78.31,84,100,3.6,ID,1610415170
Noril'sk,69.3535,88.2027,-18.92,86,73,2.01,RU,1610415171
Mazamari,-11.3258,-74.5308,71.19,80,100,2.33,PE,1610415172
Novo Aripuanã,-5.1206,-60.3797,74.25,96,74,1.41,BR,1610415173
